{
  "wantToVisit": [
    {
      "brewery": {
        "id": "bad-lab-beer-co-somersworth",
        "name": "Bad Lab Beer Co.",
        "brewery_type": "brewpub",
        "street": "460 High St",
        "address_2": null,
        "address_3": null,
        "city": "Somersworth",
        "state": "New Hampshire",
        "county_province": null,
        "postal_code": "03878-1012",
        "country": "United States",
        "longitude": "-70.88353777",
        "latitude": "43.22651432",
        "phone": "6033192436",
        "website_url": "http://www.badlabbeer.com",
        "updated_at": "2023-01-04T04:46:02.393Z",
        "created_at": "2023-01-04T04:46:02.393Z"
      },
      "id": 1
    },
    {
      "brewery": {
        "id": "11-below-brewing-company-houston",
        "name": "11 Below Brewing Company",
        "brewery_type": "micro",
        "street": "6820 Bourgeois Rd",
        "address_2": null,
        "address_3": null,
        "city": "Houston",
        "state": "Texas",
        "county_province": null,
        "postal_code": "77066-3107",
        "country": "United States",
        "longitude": "-95.5186591",
        "latitude": "29.9515464",
        "phone": "2814442337",
        "website_url": "http://www.11belowbrewing.com",
        "updated_at": "2023-01-04T04:46:02.393Z",
        "created_at": "2023-01-04T04:46:02.393Z"
      },
      "id": 2
    },
    {
      "brewery": {
        "id": "3-nations-brewing-farmers-branch",
        "name": "3 Nations Brewing",
        "brewery_type": "micro",
        "street": "2405 Squire Pl Ste 200",
        "address_2": null,
        "address_3": null,
        "city": "Farmers Branch",
        "state": "Texas",
        "county_province": null,
        "postal_code": "75234-4714",
        "country": "United States",
        "longitude": "-96.89883128",
        "latitude": "32.93044336",
        "phone": "4696607184",
        "website_url": "http://www.threenationsbrewing.com",
        "updated_at": "2023-01-04T04:46:02.393Z",
        "created_at": "2023-01-04T04:46:02.393Z"
      },
      "id": 3
    }
  ]
}